18:41:47  $GPGSV,2,2,07,16,58,166,26,26,63,076,15,31,48,056,18,1*5C
18:41:47  $GPGSV,1,1,01,03,52,234,17,6*55
18:41:47  $GPGSV,1,1,03,27,03,155,,28,20,068,,29,07,041,,0*5E
18:41:47  $GLGSV,2,1,06,65,32,141,25,66,83,094,28,67,33,325,14,75,17,037,11,1*70
18:41:47  $GLGSV,2,2,06,76,76,023,23,77,50,225,26,1*7A
18:41:47  $GLGSV,1,1,03,66,83,094,13,67,33,325,23,75,17,037,20,3*4B
18:41:47  $GLGSV,1,1,02,83,00,327,,84,01,014,,0*7E
18:41:47  $GAGSV,1,1,00,0*74
18:41:47  $GBGSV,1,1,04,20,49,308,29,23,59,052,17,32,66,171,26,37,66,232,29,1*7F
18:41:47  $GBGSV,1,1,03,19,04,320,,25,10,052,,41,13,147,,0*4D
18:41:47  $GQGSV,1,1,00,0*64
18:41:47  $GNGLL,4150.65624,N,09406.29361,W,184147.00,A,A*6D
18:41:48  $GNRMC,184148.00,A,4150.65614,N,09406.29372,W,0.484,,041125,,,A,V*0B
18:41:48  $GNVTG,,T,,M,0.484,N,0.897,K,A*33
18:41:48  $GNGGA,184148.00,4150.65614,N,09406.29372,W,1,12,0.87,298.5,M,-29.9,M,,*73
18:41:48  $GNGSA,M,3,04,09,16,26,03,31,,,,,,,1.62,0.87,1.37,1*0D
18:41:48  $GNGSA,M,3,76,75,66,67,77,65,,,,,,,1.62,0.87,1.37,2*00
18:41:48  $GNGSA,M,3,,,,,,,,,,,,,1.62,0.87,1.37,3*00
18:41:48  $GNGSA,M,3,32,37,20,,,,,,,,,,1.62,0.87,1.37,4*00
18:41:48  $GNGSA,M,3,,,,,,,,,,,,,1.62,0.87,1.37,5*06
18:41:48  $GPGSV,2,1,06,03,52,234,24,04,59,314,16,09,20,307,23,16,58,166,26,1*6E
18:41:48  $GPGSV,2,2,06,26,63,076,16,31,48,056,19,1*60
18:41:48  $GPGSV,1,1,01,03,52,234,17,6*55
18:41:48  $GPGSV,1,1,04,06,03,311,,27,03,155,,28,20,068,,29,07,041,,0*6F
18:41:48  $GLGSV,2,1,06,65,32,141,25,66,83,094,28,67,33,325,15,75,17,037,13,1*73
18:41:48  $GLGSV,2,2,06,76,76,023,24,77,50,225,26,1*7D
18:41:48  $GLGSV,1,1,03,66,83,094,13,67,33,325,23,75,17,037,20,3*4B
18:41:48  $GLGSV,1,1,02,83,00,327,,84,01,014,,0*7E
18:41:48  $GAGSV,1,1,00,0*74
18:41:48  $GBGSV,1,1,04,20,49,308,28,23,59,052,17,32,66,171,26,37,66,232,28,1*7F
18:41:48  $GBGSV,1,1,03,19,04,320,,25,10,052,,41,13,147,,0*4D
18:41:48  $GQGSV,1,1,00,0*64
18:41:48  $GNGLL,4150.65614,N,09406.29372,W,184148.00,A,A*63
18:41:49  $GNRMC,184149.00,A,4150.65614,N,09406.29368,W,0.025,,041125,,,A,V*0E
18:41:49  $GNVTG,,T,,M,0.025,N,0.047,K,A*39
18:41:49  $GNGGA,184149.00,4150.65614,N,09406.29368,W,1,12,0.87,298.6,M,-29.9,M,,*7A
18:41:49  $GNGSA,M,3,04,09,16,26,03,31,,,,,,,1.62,0.87,1.37,1*0D
18:41:49  $GNGSA,M,3,76,75,66,67,77,65,,,,,,,1.62,0.87,1.37,2*00
18:41:49  $GNGSA,M,3,,,,,,,,,,,,,1.62,0.87,1.37,3*00
18:41:49  $GNGSA,M,3,32,37,20,,,,,,,,,,1.62,0.87,1.37,4*00
18:41:49  $GNGSA,M,3,,,,,,,,,,,,,1.62,0.87,1.37,5*06
18:41:49  $GPGSV,2,1,06,03,52,234,24,04,59,314,15,09,20,307,23,16,58,166,26,1*6D
18:41:49  $GPGSV,2,2,06,26,63,076,17,31,48,056,20,1*6B
18:41:49  $GPGSV,1,1,01,03,52,234,17,6*55
18:41:49  $GPGSV,1,1,04,06,03,311,,27,03,155,,28,20,068,,29,07,041,,0*6F
18:41:49  $GLGSV,2,1,06,65,32,141,24,66,83,094,28,67,33,325,14,75,17,037,12,1*72
18:41:49  $GLGSV,2,2,06,76,76,023,24,77,50,225,26,1*7D
18:41:49  $GLGSV,1,1,03,66,83,094,15,67,33,325,23,75,17,037,20,3*4D
18:41:49  $GLGSV,1,1,02,83,00,327,,84,01,014,,0*7E
18:41:49  $GAGSV,1,1,00,0*74
18:41:49  $GBGSV,1,1,04,20,49,308,28,23,59,052,18,32,66,171,26,37,66,232,28,1*70
18:41:49  $GBGSV,1,1,03,19,04,320,,25,10,052,,41,13,147,,0*4D
18:41:49  $GQGSV,1,1,00,0*64
18:41:49  $GNGLL,4150.65614,N,09406.29368,W,184149.00,A,A*69
18:41:50  $GNRMC,184150.00,A,4150.65613,N,09406.29363,W,0.117,,041125,,,A,V*0A
18:41:50  $GNVTG,,T,,M,0.117,N,0.217,K,A*3E
18:41:50  $GNGGA,184150.00,4150.65613,N,09406.29363,W,1,12,0.87,298.5,M,-29.9,M,,*7D
18:41:50  $GNGSA,M,3,04,09,16,26,03,31,,,,,,,1.62,0.87,1.37,1*0D
18:41:50  $GNGSA,M,3,76,75,66,67,77,65,,,,,,,1.62,0.87,1.37,2*00
18:41:50  $GNGSA,M,3,,,,,,,,,,,,,1.62,0.87,1.37,3*00
18:41:50  $GNGSA,M,3,32,37,20,,,,,,,,,,1.62,0.87,1.37,4*00
18:41:50  $GNGSA,M,3,,,,,,,,,,,,,1.62,0.87,1.37,5*06
18:41:50  $GPGSV,2,1,06,03,52,234,24,04,59,314,16,09,20,307,22,16,58,166,26,1*6F
18:41:50  $GPGSV,2,2,06,26,63,076,17,31,48,056,20,1*6B
18:41:50  $GPGSV,1,1,01,03,52,234,18,6*5A
18:41:50  $GPGSV,1,1,04,06,03,311,,27,03,155,,28,20,068,,29,07,041,,0*6F
18:41:50  $GLGSV,2,1,06,65,32,141,24,66,83,094,28,67,33,325,16,75,17,037,16,1*74
18:41:50  $GLGSV,2,2,06,76,76,023,25,77,50,225,26,1*7C
18:41:50  $GLGSV,1,1,03,66,83,094,14,67,33,325,23,75,17,037,21,3*4D
18:41:50  $GLGSV,1,1,02,83,00,327,,84,01,014,,0*7E
18:41:50  $GAGSV,1,1,00,0*74
18:41:50  $GBGSV,1,1,04,20,49,308,28,23,59,052,18,32,66,171,26,37,66,232,28,1*70
18:41:50  $GBGSV,1,1,03,19,04,320,,25,10,052,,41,13,147,,0*4D
18:41:50  $GQGSV,1,1,00,0*64
18:41:50  $GNGLL,4150.65613,N,09406.29363,W,184150.00,A,A*6D
